City_ID,City,Lat,Lng,Max Temp,Humidity,Cloudiness,Wind Speed,Country,Date
0,margaret river,-33.95,115.0667,15.29000000000002,52,0,3.05,AU,2023-05-26
1,hithadhoo,-0.6,73.0833,24.420000000000016,91,100,3.15,MV,2023-05-26
2,tiksi,71.6872,128.8694,0.8000000000000114,91,100,4.47,RU,2023-05-26
3,thompson,55.7435,-97.8558,9.090000000000032,93,100,8.75,CA,2023-05-26
4,hamilton,39.1834,-84.5333,11.660000000000025,64,0,4.12,US,2023-05-26
5,ihosy,-22.4,46.1167,18.52000000000004,71,42,3.83,MG,2023-05-26
6,port-aux-francais,-49.35,70.2167,4.980000000000018,99,97,7.9,TF,2023-05-26
7,khandyga,62.6667,135.6,10.220000000000027,63,99,2.5,RU,2023-05-26
8,beau vallon,-20.4189,57.6953,24.03000000000003,78,100,6.98,MU,2023-05-26
9,taro,-8.3862,115.28,25.0,63,68,2.49,ID,2023-05-26
10,brookings,44.3114,-96.7984,18.99000000000001,57,0,7.72,US,2023-05-26
11,albany,42.6001,-73.9662,7.9500000000000455,83,0,0.89,US,2023-05-26
12,puerto ayora,-0.7393,-90.3518,25.310000000000002,95,41,1.34,EC,2023-05-26
13,roma,43.2128,-75.4557,5.920000000000016,93,0,0.0,US,2023-05-26
14,ballina,-28.8667,153.5667,20.430000000000007,43,0,5.86,AU,2023-05-26
15,blackmans bay,-43.0167,147.3167,11.520000000000039,71,100,5.2,AU,2023-05-26
16,sao vicente,-23.9631,-46.3919,23.100000000000023,26,0,1.68,BR,2023-05-26
17,kourou,5.1552,-52.6478,23.03000000000003,94,100,2.29,GF,2023-05-26
18,west island,-12.1568,96.8225,27.99000000000001,78,27,7.2,CC,2023-05-26
19,anloga,5.7947,0.8973,28.260000000000048,78,65,3.32,GH,2023-05-26
20,waitangi,-43.9535,-176.5597,13.79000000000002,82,1,3.58,NZ,2023-05-26
21,dalandzadgad,43.5708,104.425,23.04000000000002,10,100,7.85,MN,2023-05-26
22,grytviken,-54.2811,-36.5092,2.2100000000000364,83,24,3.29,GS,2023-05-26
23,bamboo flat,11.7,92.7167,32.05000000000001,66,40,5.14,IN,2023-05-26
24,nova sintra,14.8667,-24.7167,20.82000000000005,84,100,7.59,CV,2023-05-26
25,edinburgh of the seven seas,-37.0676,-12.3116,17.07000000000005,88,99,18.7,SH,2023-05-26
26,bredasdorp,-34.5322,20.0403,11.04000000000002,77,8,3.08,ZA,2023-05-26
27,yellowknife,62.456,-114.3525,8.29000000000002,81,20,3.09,CA,2023-05-26
28,jamestown,42.097,-79.2353,5.9500000000000455,87,0,1.54,US,2023-05-26
29,vorgashor,67.5833,63.95,19.07000000000005,69,100,6.45,RU,2023-05-26
30,zaragoza,41.6561,-0.8773,16.680000000000007,75,75,2.06,ES,2023-05-26
31,wailua homesteads,22.0669,-159.378,23.439999999999998,84,75,8.75,US,2023-05-26
32,palmer,42.1584,-72.3287,8.25,84,0,0.0,US,2023-05-26
33,faya-largeau,17.9257,19.1043,34.94,28,0,0.0,TD,2023-05-26
34,iqaluit,63.7506,-68.5145,1.8500000000000227,80,100,3.09,CA,2023-05-26
35,ilulissat,69.2167,-51.1,-0.9899999999999523,74,100,0.0,GL,2023-05-26
36,whitehorse,60.7161,-135.0538,9.450000000000045,79,100,8.75,CA,2023-05-26
37,broome,42.2506,-75.833,6.110000000000014,85,0,0.45,US,2023-05-26
38,carutapera,-1.195,-46.02,24.600000000000023,91,11,2.2,BR,2023-05-26
39,nemuro,43.3236,145.575,10.660000000000025,89,44,8.65,JP,2023-05-26
40,miquelon,47.0975,-56.3814,5.0,95,100,12.42,PM,2023-05-26
41,mount isa,-20.7333,139.5,22.870000000000005,25,0,7.72,AU,2023-05-26
42,holualoa,19.6228,-155.9522,21.910000000000025,95,0,3.6,US,2023-05-26
43,avarua,-21.2078,-159.775,21.03000000000003,100,56,0.51,CK,2023-05-26
44,hawaiian paradise park,19.5933,-154.9731,22.629999999999995,89,40,2.57,US,2023-05-26
45,badger,64.8,-147.5333,20.140000000000043,54,100,6.69,US,2023-05-26
46,polyany,54.7122,39.8231,15.490000000000009,95,100,2.56,RU,2023-05-26
47,ghadamis,30.1337,9.5007,21.360000000000014,51,0,4.58,LY,2023-05-26
48,isafjordur,66.0755,-23.124,5.020000000000039,70,100,1.54,IS,2023-05-26
49,talnakh,69.4865,88.3972,3.4500000000000455,100,94,3.88,RU,2023-05-26
50,midvagur,62.0511,-7.1939,8.460000000000036,76,75,5.66,FO,2023-05-26
51,ribeira grande,38.5167,-28.7,17.100000000000023,77,20,5.36,PT,2023-05-26
52,alice springs,-23.7,133.8833,15.75,25,0,6.17,AU,2023-05-26
53,same,-4.0667,37.7333,20.420000000000016,79,99,1.59,TZ,2023-05-26
54,anadyr,64.75,177.4833,0.28000000000002956,100,100,2.68,RU,2023-05-26
55,gadzhiyevo,69.2551,33.3362,9.430000000000007,44,68,5.95,RU,2023-05-26
56,susuman,62.7833,148.1667,8.260000000000048,37,82,1.82,RU,2023-05-26
57,hola,51.5377,23.1902,19.340000000000032,97,100,2.8,PL,2023-05-26
58,port elizabeth,-33.918,25.5701,15.050000000000011,58,0,5.66,ZA,2023-05-26
59,buurhakaba,2.8026,44.0781,29.470000000000027,50,62,5.13,SO,2023-05-26
60,bethel,41.3712,-73.414,10.520000000000039,77,0,2.06,US,2023-05-26
61,talcahuano,-36.7167,-73.1167,12.82000000000005,94,100,4.63,CL,2023-05-26
62,neryungri,56.6709,124.6491,9.260000000000048,58,100,7.73,RU,2023-05-26
63,jasper,37.2001,-94.3502,18.950000000000045,78,45,4.12,US,2023-05-26
64,altay,47.8667,88.1167,16.900000000000034,39,60,7.37,CN,2023-05-26
65,port mathurin,-19.6833,63.4167,25.420000000000016,75,58,8.48,MU,2023-05-26
66,nasarawa,8.5294,7.7242,26.640000000000043,82,27,2.3,NG,2023-05-26
67,kerimaki,61.9167,29.2833,11.970000000000027,50,0,2.06,FI,2023-05-26
68,petropavlovsk-kamchatsky,53.0452,158.6483,13.330000000000041,44,40,3.0,RU,2023-05-26
69,saint-joseph,-21.3667,55.6167,25.82000000000005,76,99,5.74,RE,2023-05-26
70,punta arenas,-53.15,-70.9167,0.060000000000002274,86,20,5.66,CL,2023-05-26
71,apolinario saravia,-24.4328,-63.9954,20.510000000000048,92,100,2.91,AR,2023-05-26
72,bishkek,42.87,74.59,24.110000000000014,25,3,3.0,KG,2023-05-26
73,ushuaia,-54.8,-68.3,0.8100000000000023,75,0,2.57,AR,2023-05-26
74,al mijlad,11.0333,27.7333,36.80000000000001,25,54,7.35,SD,2023-05-26
75,dunedin,-45.8742,170.5036,13.300000000000011,71,60,3.47,NZ,2023-05-26
76,adamstown,-25.066,-130.1015,23.07000000000005,73,36,2.72,PN,2023-05-26
77,ghat,24.9647,10.1728,26.450000000000045,14,6,5.29,LY,2023-05-26
78,songyuan,45.1171,124.8568,26.08000000000004,21,49,8.55,CN,2023-05-26
79,labrador city,52.9463,-66.9114,-4.0499999999999545,93,0,0.0,CA,2023-05-26
80,al jawf,29.5,38.75,27.07000000000005,16,78,3.06,SA,2023-05-26
81,assab,13.0092,42.7394,31.52000000000004,70,13,10.3,ER,2023-05-26
82,hovd,48.0056,91.6419,12.920000000000016,49,96,2.73,MN,2023-05-26
83,porto novo,6.4965,2.6036,27.900000000000034,85,99,1.75,BJ,2023-05-26
84,klyuchi,52.2667,79.1667,18.960000000000036,25,6,6.55,RU,2023-05-26
85,qaqortoq,60.7167,-46.0333,0.7200000000000273,92,92,2.22,GL,2023-05-26
86,san antonio de pale,-1.4014,5.6325,26.260000000000048,85,100,6.08,GQ,2023-05-26
87,revda,56.801,59.9303,26.53000000000003,29,88,1.51,RU,2023-05-26
88,menongue,-14.6585,17.691,21.129999999999995,42,0,0.66,AO,2023-05-26
89,greymouth,-42.4667,171.2,14.210000000000036,86,87,9.14,NZ,2023-05-26
90,atafu village,-8.5421,-172.5159,28.850000000000023,71,10,4.36,TK,2023-05-26
91,enewetak,11.3474,162.3373,27.939999999999998,80,42,8.81,MH,2023-05-26
92,lukoyanov,55.0277,44.4786,21.370000000000005,69,100,3.46,RU,2023-05-26
93,stanley,54.868,-1.6985,14.850000000000023,84,0,2.06,GB,2023-05-26
94,feodosiya,45.0333,35.3833,18.850000000000023,77,6,3.22,UA,2023-05-26
95,afaahiti,-17.75,-149.2833,25.930000000000007,80,30,3.93,PF,2023-05-26
96,papatowai,-46.5619,169.4708,10.210000000000036,87,82,6.76,NZ,2023-05-26
97,sur,22.5667,59.5289,37.30000000000001,40,0,0.94,OM,2023-05-26
98,new norfolk,-42.7826,147.0587,12.180000000000007,69,100,1.79,AU,2023-05-26
99,kingston,17.997,-76.7936,27.53000000000003,74,20,4.12,JM,2023-05-26
100,chato,-2.6378,31.7669,23.600000000000023,61,79,3.73,TZ,2023-05-26
101,xinyuan,37.3,99.0,6.970000000000027,68,100,2.73,CN,2023-05-26
102,keflavik,64.0049,-22.5624,6.240000000000009,93,100,7.2,IS,2023-05-26
103,invercargill,-46.4,168.35,10.490000000000009,83,100,6.71,NZ,2023-05-26
104,voznesenskoye,54.89,42.7569,21.79000000000002,68,100,2.51,RU,2023-05-26
105,hasaki,35.7333,140.8333,22.379999999999995,66,100,6.08,JP,2023-05-26
106,carloforte,39.145,8.3058,18.910000000000025,72,16,2.22,IT,2023-05-26
107,la'ie,21.6477,-157.9253,25.980000000000018,72,1,0.89,US,2023-05-26
108,cabedelo,-6.9811,-34.8339,25.370000000000005,76,34,5.88,BR,2023-05-26
109,georgetown,5.4112,100.3354,29.970000000000027,74,40,2.06,MY,2023-05-26
110,daru,-9.0763,143.2092,25.730000000000018,88,100,5.9,PG,2023-05-26
111,takoradi,4.8845,-1.7554,26.910000000000025,84,85,1.89,GH,2023-05-26
112,ust-tsilma,65.441,52.1498,24.129999999999995,49,51,6.22,RU,2023-05-26
113,todiresti,47.3167,26.8333,18.220000000000027,69,49,5.91,RO,2023-05-26
114,fort st. john,56.2499,-120.8529,11.939999999999998,76,0,4.12,CA,2023-05-26
115,kailua-kona,19.6406,-155.9956,23.980000000000018,92,0,3.6,US,2023-05-26
116,makushino,55.2103,67.2442,20.120000000000005,38,6,4.31,RU,2023-05-26
117,college,64.8569,-147.8028,20.180000000000007,54,100,6.69,US,2023-05-26
118,tura,25.5198,90.2201,30.620000000000005,53,27,1.96,IN,2023-05-26
119,fomboni,-12.28,43.7425,26.460000000000036,65,0,5.47,KM,2023-05-26
120,huarmey,-10.0681,-78.1522,21.689999999999998,83,100,4.91,PE,2023-05-26
121,pazarlar,38.995,29.1258,17.650000000000034,55,12,0.74,TR,2023-05-26
122,shakiso,5.75,38.9167,17.230000000000018,93,100,1.14,ET,2023-05-26
123,bathsheba,13.2167,-59.5167,27.340000000000032,89,75,3.09,BB,2023-05-26
124,tamanrasset,22.785,5.5228,22.950000000000045,13,0,1.54,DZ,2023-05-26
125,coahuayana de hidalgo,18.7,-103.6583,24.400000000000034,85,100,0.33,MX,2023-05-26
126,rio grande,-32.035,-52.0986,17.900000000000034,87,7,5.0,BR,2023-05-26
127,punta del este,-34.9667,-54.95,22.200000000000045,82,75,5.66,UY,2023-05-26
128,udachny,66.4167,112.4,3.7200000000000273,76,100,5.84,RU,2023-05-26
129,leua,48.2156,18.6071,19.160000000000025,76,14,1.2,SK,2023-05-26
130,acarau,-2.8856,-40.12,24.980000000000018,88,60,4.98,BR,2023-05-26
131,chos malal,-37.3781,-70.2709,6.580000000000041,66,8,5.75,AR,2023-05-26
132,awjilah,29.1081,21.2869,26.560000000000002,39,0,6.62,LY,2023-05-26
133,puerto baquerizo moreno,-0.9,-89.6,25.260000000000048,83,48,5.19,EC,2023-05-26
134,ta`u,-14.2336,-169.5144,27.460000000000036,79,95,6.8,AS,2023-05-26
135,bel ombre,-4.6167,55.4167,29.910000000000025,66,20,7.2,SC,2023-05-26
136,la passe,45.5549,-0.8967,17.230000000000018,78,0,3.26,FR,2023-05-26
137,pemangkat,1.1667,108.9667,30.170000000000016,70,99,5.85,ID,2023-05-26
138,cooper's town,26.8667,-77.5167,25.680000000000007,74,75,3.57,BS,2023-05-26
139,bandarbeyla,9.4942,50.8122,31.010000000000048,62,97,7.63,SO,2023-05-26
140,dryden,49.7833,-92.7503,16.160000000000025,55,0,4.63,CA,2023-05-26
141,kharabali,47.4196,47.2568,27.129999999999995,37,100,2.2,RU,2023-05-26
142,wamba,8.9333,8.6,26.150000000000034,77,17,0.7,NG,2023-05-26
143,kununurra,-15.7667,128.7333,30.99000000000001,29,10,5.14,AU,2023-05-26
144,dongargaon,20.9667,80.85,41.99000000000001,13,45,7.59,IN,2023-05-26
145,papao,-17.75,-149.55,26.82000000000005,78,0,4.03,PF,2023-05-26
146,ladario,-19.0047,-57.6017,20.700000000000045,66,0,1.03,BR,2023-05-26
147,taroa,8.7058,171.2275,28.08000000000004,78,100,7.46,MH,2023-05-26
148,horta,38.5333,-28.6333,16.680000000000007,80,20,5.36,PT,2023-05-26
149,kabalo,-6.05,26.9167,28.05000000000001,51,18,2.89,CD,2023-05-26
150,kruisfontein,-34.0033,24.7314,13.82000000000005,63,71,7.97,ZA,2023-05-26
151,pangai,-19.8,-174.35,21.970000000000027,75,100,7.55,TO,2023-05-26
152,pontecorvo,41.4616,13.6667,24.930000000000007,70,76,0.64,IT,2023-05-26
153,anchau,10.9597,8.3916,27.230000000000018,57,23,3.1,NG,2023-05-26
154,howrah,22.5892,88.3103,33.0,66,40,2.57,IN,2023-05-26
155,margate,51.3813,1.3862,12.720000000000027,69,12,4.02,GB,2023-05-26
156,uturoa,-16.7333,-151.4333,27.75,76,38,5.08,PF,2023-05-26
157,lensk,60.7253,114.9278,15.53000000000003,28,100,2.51,RU,2023-05-26
158,severobaykal'sk,55.65,109.3167,4.8700000000000045,72,100,0.33,RU,2023-05-26
159,geraldton,-28.7667,114.6,23.230000000000018,25,100,3.6,AU,2023-05-26
160,port lincoln,-34.7333,135.8667,14.610000000000014,67,100,6.06,AU,2023-05-26
161,isoka,-10.1606,32.6335,20.010000000000048,60,51,1.86,ZM,2023-05-26
162,dudinka,69.4058,86.1778,3.680000000000007,100,100,7.06,RU,2023-05-26
163,wucheng,29.6008,118.175,28.350000000000023,81,98,1.53,CN,2023-05-26
164,livingstone,-17.8419,25.8543,24.660000000000025,32,0,2.47,ZM,2023-05-26
165,rongelap,11.1635,166.8941,28.05000000000001,78,100,8.24,MH,2023-05-26
166,puerto natales,-51.7236,-72.4875,-0.6099999999999568,86,19,3.04,CL,2023-05-26
167,catriel,-37.8791,-67.7956,7.689999999999998,61,0,1.92,AR,2023-05-26
168,port alfred,-33.5906,26.891,14.54000000000002,70,34,4.02,ZA,2023-05-26
169,nogliki,51.8333,143.1667,9.360000000000014,74,97,1.67,RU,2023-05-26
170,victorica,-36.2151,-65.4359,12.090000000000032,91,12,2.41,AR,2023-05-26
171,ust-nera,64.5667,143.2,7.270000000000039,52,94,0.19,RU,2023-05-26
172,coquimbo,-29.9533,-71.3436,14.850000000000023,88,75,2.57,CL,2023-05-26
173,walvis bay,-22.9575,14.5053,11.720000000000027,93,75,4.12,NA,2023-05-26
174,kili,5.6439,169.1211,28.08000000000004,78,27,4.77,MH,2023-05-26
175,colonia,50.9333,6.95,13.810000000000002,77,20,2.06,DE,2023-05-26
176,island harbour,50.724,-1.2758,12.770000000000039,79,6,4.02,GB,2023-05-26
177,saipan,15.1355,145.701,29.390000000000043,100,40,6.17,MP,2023-05-26
178,natchez,31.5604,-91.4032,20.120000000000005,77,20,2.06,US,2023-05-26
179,nar'yan-mar,67.6713,53.087,15.700000000000045,89,100,6.8,RU,2023-05-26
180,san juan de miraflores,-12.1629,-76.9635,20.29000000000002,84,100,4.05,PE,2023-05-26
181,palm beach gardens,26.8234,-80.1386,22.99000000000001,94,75,0.0,US,2023-05-26
182,umluj,25.0213,37.2685,30.439999999999998,53,74,2.93,SA,2023-05-26
183,saint-pierre,-21.3393,55.4781,26.430000000000007,61,0,8.75,RE,2023-05-26
184,quellon,-43.1167,-73.6167,2.140000000000043,100,0,2.06,CL,2023-05-26
185,lazaro cardenas,17.9583,-102.2,27.600000000000023,74,100,0.54,MX,2023-05-26
186,palikir - national government center,6.9248,158.1611,28.410000000000025,79,75,2.57,FM,2023-05-26
187,dawei,14.0833,98.2,32.80000000000001,53,30,4.87,MM,2023-05-26
188,saudarkrokur,65.7461,-19.6394,5.810000000000002,74,100,5.47,IS,2023-05-26
189,xinzhi,36.4989,111.7047,23.180000000000007,43,100,4.28,CN,2023-05-26
190,mezhdurechenskiy,59.6,65.9333,23.33000000000004,32,19,3.24,RU,2023-05-26
191,aioun,16.6614,-9.6149,30.840000000000032,30,95,6.41,MR,2023-05-26
192,iskateley,67.6803,53.1512,15.650000000000034,89,100,6.85,RU,2023-05-26
193,lewistown,40.5992,-77.5714,8.78000000000003,79,0,0.0,US,2023-05-26
194,palmas,-10.2128,-48.3603,22.930000000000007,83,40,3.09,BR,2023-05-26
195,luderitz,-26.6481,15.1594,11.640000000000043,64,4,3.96,NA,2023-05-26
196,yei,4.095,30.6779,28.74000000000001,52,52,4.2,SS,2023-05-26
197,gangtok,27.3333,88.6167,18.939999999999998,80,63,2.21,IN,2023-05-26
198,hermanus,-34.4187,19.2345,13.78000000000003,70,72,4.1,ZA,2023-05-26
199,tofol,5.3248,163.0078,27.700000000000045,79,43,3.8,FM,2023-05-26
200,siverskiy,59.3544,30.0783,15.050000000000011,38,16,3.28,RU,2023-05-26
201,lae,-6.7221,146.9847,28.370000000000005,79,13,2.97,PG,2023-05-26
202,haiku-pauwela,20.9219,-156.3051,23.360000000000014,80,0,4.02,US,2023-05-26
203,bilibino,68.0546,166.4372,13.900000000000034,28,80,1.15,RU,2023-05-26
204,queenstown,-31.8976,26.8753,7.890000000000043,55,6,8.5,ZA,2023-05-26
205,hammerfest,70.6634,23.6821,5.25,75,75,6.69,NO,2023-05-26
206,codrington,-38.2667,141.9667,12.32000000000005,73,100,6.79,AU,2023-05-26
207,orchomenos,38.4929,22.9796,22.260000000000048,53,20,2.77,GR,2023-05-26
208,vila velha,-20.3297,-40.2925,20.53000000000003,98,75,1.03,BR,2023-05-26
209,ixtapa,20.7,-105.2,25.129999999999995,66,21,1.07,MX,2023-05-26
210,ljusdal,61.8288,16.0913,9.25,41,5,6.15,SE,2023-05-26
211,lubang,13.8584,120.124,29.0,71,10,0.7,PH,2023-05-26
212,tolanaro,-25.0319,46.9987,23.04000000000002,73,75,4.12,MG,2023-05-26
213,khovd,48.0056,91.6419,12.920000000000016,49,96,2.73,MN,2023-05-26
214,kapa'a,22.0752,-159.319,24.180000000000007,83,75,8.75,US,2023-05-26
215,naryshkino,52.9678,35.7268,19.680000000000007,64,100,3.02,RU,2023-05-26
216,laminusa,5.5549,120.9136,28.879999999999995,73,100,3.42,PH,2023-05-26
217,am timan,11.0297,20.2827,34.74000000000001,32,48,3.48,TD,2023-05-26
218,guerrero negro,27.9769,-114.0611,15.220000000000027,80,100,7.2,MX,2023-05-26
219,shujaabad,29.8797,71.2931,32.03000000000003,21,0,3.16,PK,2023-05-26
220,nuuk,64.1835,-51.7216,-0.17999999999994998,77,36,4.95,GL,2023-05-26
221,princeville,45.7668,-61.2985,5.860000000000014,98,100,1.54,CA,2023-05-26
222,presidencia de la plaza,-27.0015,-59.8424,22.57000000000005,65,99,3.93,AR,2023-05-26
223,kemin,42.7846,75.6892,19.54000000000002,30,5,2.57,KG,2023-05-26
224,olonkinbyen,70.9221,-8.7187,-0.7199999999999704,67,0,6.93,SJ,2023-05-26
225,kosong,38.3788,128.4676,22.27000000000004,60,96,2.64,KR,2023-05-26
226,ellensburg,46.9965,-120.5479,17.910000000000025,72,100,4.12,US,2023-05-26
227,ascension,30.2169,-90.9001,21.680000000000007,87,100,0.0,US,2023-05-26
228,nema,57.5067,50.5011,22.0,56,100,3.68,RU,2023-05-26
229,kachug,53.9606,105.8817,10.53000000000003,46,99,3.53,RU,2023-05-26
230,ust'-ordynskiy,52.805,104.7508,5.1200000000000045,85,99,2.5,RU,2023-05-26
231,kupang,-10.1667,123.5833,30.32000000000005,54,20,8.75,ID,2023-05-26
232,tangalle,6.024,80.7911,34.09000000000003,60,100,7.22,LK,2023-05-26
233,jishui,33.7333,115.4,27.78000000000003,51,100,4.94,CN,2023-05-26
234,satipo,-11.2522,-74.6386,19.129999999999995,97,100,1.18,PE,2023-05-26
235,sinabang,2.4803,96.3801,29.310000000000002,69,78,2.05,ID,2023-05-26
236,chonchi,-42.6128,-73.8092,1.5600000000000023,93,100,1.38,CL,2023-05-26
237,lompoc,34.6391,-120.4579,13.210000000000036,84,40,3.58,US,2023-05-26
238,hutchinson island south,27.2995,-80.2205,24.450000000000045,91,0,2.57,US,2023-05-26
239,fort-shevchenko,44.5086,50.263,27.24000000000001,32,100,11.31,KZ,2023-05-26
240,kitimat,54.0524,-128.6534,17.210000000000036,70,93,1.34,CA,2023-05-26
241,laguna,38.421,-121.4238,15.100000000000023,83,0,4.63,US,2023-05-26
242,fale old settlement,-9.3852,-171.2468,28.0,76,81,3.96,TK,2023-05-26
243,turpan,42.9333,89.1667,29.640000000000043,18,100,2.76,CN,2023-05-26
244,rikaze,29.25,88.8833,19.950000000000045,13,100,8.2,CN,2023-05-26
245,labytnangi,66.6572,66.4183,22.55000000000001,47,33,7.67,RU,2023-05-26
246,vuosaari,60.2083,25.1436,12.910000000000025,61,20,3.58,FI,2023-05-26
247,tevriz,57.509,72.4042,20.390000000000043,24,0,1.87,RU,2023-05-26
248,paoy paet,13.6561,102.5625,38.450000000000045,33,72,3.52,KH,2023-05-26
249,utrik,11.2278,169.8474,27.82000000000005,80,100,8.37,MH,2023-05-26
250,jwaneng,-24.6004,24.7303,13.600000000000023,47,5,5.68,BW,2023-05-26
251,monte carmelo,-18.7247,-47.4986,13.460000000000036,80,0,2.47,BR,2023-05-26
252,machico,32.7,-16.7667,17.850000000000023,80,20,1.54,PT,2023-05-26
253,miechow,50.3565,20.0279,17.77000000000004,82,100,2.65,PL,2023-05-26
254,bardai,11.65,7.2333,27.439999999999998,48,52,4.71,NG,2023-05-26
255,genhe,50.7833,121.5167,13.870000000000005,19,100,7.57,CN,2023-05-26
256,broken hill,-31.95,141.4333,12.740000000000009,47,28,6.59,AU,2023-05-26
257,balykshi,47.0667,51.8667,32.0,12,0,11.0,KZ,2023-05-26
258,monte azul,-15.155,-42.8747,16.99000000000001,93,27,2.67,BR,2023-05-26
259,bytow,54.1706,17.4919,14.560000000000002,55,4,4.63,PL,2023-05-26
260,reyes,-14.3167,-67.3833,22.04000000000002,95,22,0.85,BO,2023-05-26
261,dimbokro,6.6451,-4.7048,24.0,95,100,0.63,CI,2023-05-26
262,fallon,39.4735,-118.7774,12.930000000000007,88,40,0.0,US,2023-05-26
263,saynshand,44.8824,110.1163,18.82000000000005,26,100,1.17,MN,2023-05-26
264,inari,68.906,27.0288,8.110000000000014,37,94,5.89,FI,2023-05-26
265,ylitornio,66.3089,23.6773,8.910000000000025,34,60,4.45,FI,2023-05-26
266,ngaoundere,7.3167,13.5833,20.939999999999998,94,0,0.0,CM,2023-05-26
267,ouadda,8.0777,22.4007,29.710000000000036,46,15,3.38,CF,2023-05-26
268,aykhal,66.0,111.5,3.0,71,100,5.19,RU,2023-05-26
269,mazagao,-0.115,-51.2894,26.03000000000003,97,49,1.07,BR,2023-05-26
270,arauco,-37.2463,-73.3175,10.990000000000009,93,76,2.33,CL,2023-05-26
271,minas de marcona,-15.2119,-75.1103,14.03000000000003,90,86,5.19,PE,2023-05-26
272,carnarvon,-24.8667,113.6333,26.25,36,94,4.41,AU,2023-05-26
273,severo-yeniseyskiy,60.3725,93.0408,6.610000000000014,60,96,4.01,RU,2023-05-26
274,conduaga,8.862,117.4893,30.33000000000004,65,100,3.54,PH,2023-05-26
275,lihue,21.9789,-159.3672,23.77000000000004,82,75,8.75,US,2023-05-26
276,phan rang-thap cham,11.5667,108.9833,32.450000000000045,59,93,4.09,VN,2023-05-26
277,sandanski,41.5667,23.2833,21.04000000000002,60,13,0.85,BG,2023-05-26
278,sulphur springs,33.1385,-95.6011,20.53000000000003,88,0,0.0,US,2023-05-26
279,portland,45.5234,-122.6762,19.32000000000005,67,0,2.06,US,2023-05-26
280,ormara,25.2088,64.6357,29.360000000000014,82,0,8.74,PK,2023-05-26
281,remire-montjoly,4.9167,-52.2667,23.02000000000004,100,100,0.0,GF,2023-05-26
282,kharp,66.8014,65.8081,22.54000000000002,49,53,5.6,RU,2023-05-26
283,trincomalee,8.5711,81.2335,34.10000000000002,54,36,5.08,LK,2023-05-26
284,kodinsk,58.6881,99.1844,15.240000000000009,37,100,3.53,RU,2023-05-26
285,brosteni,47.2333,25.7,16.49000000000001,76,14,2.37,RO,2023-05-26
286,pitimbu,-7.4706,-34.8086,25.33000000000004,76,49,4.94,BR,2023-05-26
287,miedzychod,52.5988,15.897,12.510000000000048,53,5,4.11,PL,2023-05-26
288,buraydah,26.326,43.975,33.25,19,0,2.03,SA,2023-05-26
289,likisa,-8.6695,125.6875,20.53000000000003,63,95,1.06,TL,2023-05-26
290,jogeva,58.7467,26.3939,12.720000000000027,35,10,2.25,EE,2023-05-26
291,san rafael,-34.6177,-68.3301,11.760000000000048,40,1,2.27,AR,2023-05-26
292,la paz,-16.5,-68.15,6.430000000000007,72,50,0.89,BO,2023-05-26
293,imbituba,-28.24,-48.6703,19.450000000000045,95,16,4.27,BR,2023-05-26
294,hobyo,5.3505,48.5268,29.79000000000002,64,24,7.0,SO,2023-05-26
295,osorno,-40.5667,-73.15,4.580000000000041,99,89,0.89,CL,2023-05-26
296,taroudant,30.4703,-8.877,17.680000000000007,75,100,1.21,MA,2023-05-26
297,arraial do cabo,-22.9661,-42.0278,22.170000000000016,87,0,6.29,BR,2023-05-26
298,balboa,2.0396,-77.2168,16.060000000000002,97,87,0.08,CO,2023-05-26
299,gaeta,41.2183,13.5628,23.189999999999998,56,88,1.23,IT,2023-05-26
300,barcs,45.96,17.4586,18.24000000000001,75,69,3.01,HU,2023-05-26
301,bonthe,7.5264,-12.505,25.060000000000002,90,100,2.18,SL,2023-05-26
302,soio,-6.1349,12.3689,25.29000000000002,82,97,2.97,AO,2023-05-26
303,lebu,-37.6167,-73.65,11.300000000000011,84,43,3.51,CL,2023-05-26
304,novyy urengoy,66.0833,76.6333,13.300000000000011,51,100,6.51,RU,2023-05-26
305,bitlis,38.5,42.25,16.75,43,0,1.29,TR,2023-05-26
306,villa gesell,-37.2639,-56.973,17.25,97,100,6.14,AR,2023-05-26
307,ola,59.5833,151.2833,7.860000000000014,92,100,3.84,RU,2023-05-26
308,constantia,44.1833,28.65,21.5,76,100,4.14,RO,2023-05-26
309,naze,28.3667,129.4833,23.510000000000048,79,100,6.44,JP,2023-05-26
310,yuzhno-kurilsk,44.0306,145.8556,12.970000000000027,78,23,5.06,RU,2023-05-26
311,neka,36.6508,53.299,29.730000000000018,51,75,2.06,IR,2023-05-26
312,datca,36.7378,27.6842,20.52000000000004,62,0,0.97,TR,2023-05-26
313,wenchang,30.904,118.4887,29.760000000000048,66,100,1.48,CN,2023-05-26
314,matthew town,20.95,-73.6667,27.05000000000001,78,98,4.95,BS,2023-05-26
315,serebryanyye prudy,54.4692,38.721,17.75,76,99,3.33,RU,2023-05-26
316,howard springs,-12.497,131.047,27.950000000000045,38,39,0.62,AU,2023-05-26
317,salahonda,2.1019,-78.7217,26.590000000000032,84,100,4.05,CO,2023-05-26
318,antonio enes,-16.2325,39.9086,25.340000000000032,54,0,2.0,MZ,2023-05-26
319,san jose del guaviare,2.5729,-72.6459,22.33000000000004,98,99,0.71,CO,2023-05-26
320,moyale,3.5167,39.0584,19.25,89,100,5.24,KE,2023-05-26
321,northam,51.0333,-4.2167,14.230000000000018,80,6,3.95,GB,2023-05-26
322,jumla,29.2747,82.1838,13.29000000000002,78,100,2.34,NP,2023-05-26
323,kerikeri,-35.2268,173.9474,10.510000000000048,91,7,1.42,NZ,2023-05-26
324,booneville,34.6582,-88.5667,18.79000000000002,87,43,2.71,US,2023-05-26
325,ajdabiya,30.7554,20.2263,23.900000000000034,59,0,8.54,LY,2023-05-26
326,timmins,48.4669,-81.3331,4.900000000000034,75,20,2.06,CA,2023-05-26
327,tazacorte,28.629,-17.9293,18.54000000000002,77,40,2.68,ES,2023-05-26
328,florence,43.7667,11.25,24.08000000000004,79,0,0.51,IT,2023-05-26
329,durres,41.3231,19.4414,21.100000000000023,66,5,1.56,AL,2023-05-26
330,gebeit,21.0667,36.3167,33.23000000000002,30,1,3.05,SD,2023-05-26
331,tengrela,10.4869,-6.4097,23.920000000000016,83,84,0.94,CI,2023-05-26
332,chernyshevskiy,63.0128,112.4714,9.75,36,100,3.21,RU,2023-05-26
333,illizi,26.4833,8.4667,24.890000000000043,21,58,3.78,DZ,2023-05-26
334,loukhi,66.0764,33.0381,10.810000000000002,33,92,5.85,RU,2023-05-26
335,le port,-20.9373,55.2919,26.610000000000014,83,100,0.74,RE,2023-05-26
336,tindouf,27.6711,-8.1474,18.25,55,0,5.66,DZ,2023-05-26
337,smithers,54.7804,-127.1743,14.180000000000007,62,0,2.06,CA,2023-05-26
338,aasiaat,68.7098,-52.8699,-3.069999999999993,93,100,3.32,GL,2023-05-26
339,sulak,43.2734,47.5146,25.510000000000048,64,80,3.87,RU,2023-05-26
340,thunder bay,48.4001,-89.3168,1.990000000000009,87,0,1.54,CA,2023-05-26
341,kiunga,-6.1219,141.2906,27.28000000000003,76,98,1.35,PG,2023-05-26
342,luwuk,-0.9516,122.7875,28.180000000000007,77,69,2.46,ID,2023-05-26
343,ulaangom,49.9811,92.0667,13.800000000000011,28,75,2.85,MN,2023-05-26
344,okhotsk,59.3833,143.3,4.600000000000023,76,60,5.36,RU,2023-05-26
345,fecamp,49.7579,0.3746,13.490000000000009,81,0,6.82,FR,2023-05-26
346,arica,-18.475,-70.3042,19.129999999999995,77,100,1.03,CL,2023-05-26
347,kimbe,-5.5502,150.1429,27.160000000000025,85,42,1.48,PG,2023-05-26
348,touros,-5.1989,-35.4608,25.370000000000005,84,57,5.99,BR,2023-05-26
349,buka,40.8108,69.1986,28.439999999999998,18,0,3.43,UZ,2023-05-26
350,dauphin,51.1494,-100.0502,25.08000000000004,41,100,5.14,CA,2023-05-26
351,vanimo,-2.6741,141.3028,28.150000000000034,79,46,2.63,PG,2023-05-26
352,kingscliff,-28.2667,153.5667,22.629999999999995,34,0,3.09,AU,2023-05-26
353,rudbar,30.15,62.6,37.860000000000014,9,0,8.98,AF,2023-05-26
354,puerto leguizamo,-0.1934,-74.7819,21.82000000000005,99,100,0.91,CO,2023-05-26
355,praia da vitoria,38.7333,-27.0667,17.140000000000043,88,75,5.66,PT,2023-05-26
356,ario de rosales,19.2,-101.7167,17.410000000000025,67,95,0.87,MX,2023-05-26
357,happy valley-goose bay,53.3168,-60.3315,1.170000000000016,93,20,2.57,CA,2023-05-26
358,semirara,12.0697,121.3986,29.439999999999998,71,100,2.41,PH,2023-05-26
359,sabha,27.0377,14.4283,27.090000000000032,18,0,2.77,LY,2023-05-26
360,sebdou,34.637,-1.3314,13.610000000000014,56,86,1.89,DZ,2023-05-26
361,funafuti,-8.5243,179.1942,28.0,94,75,2.57,TV,2023-05-26
362,isangel,-19.55,169.2667,22.77000000000004,63,22,4.5,VU,2023-05-26
363,meadow lakes,61.6247,-149.6011,9.480000000000018,86,0,0.45,US,2023-05-26
364,crane,31.3974,-102.3501,22.27000000000004,73,96,7.66,US,2023-05-26
365,inhambane,-23.865,35.3833,25.99000000000001,57,20,4.12,MZ,2023-05-26
366,igarka,67.4667,86.5833,5.270000000000039,87,70,2.54,RU,2023-05-26
367,aljezur,37.3191,-8.8033,17.710000000000036,86,9,2.16,PT,2023-05-26
368,shubarshi,48.5872,57.1869,27.83000000000004,20,0,2.37,KZ,2023-05-26
369,ribeira brava,32.65,-17.0667,17.850000000000023,72,17,1.26,PT,2023-05-26
370,watford city,47.8022,-103.2832,17.310000000000002,100,75,3.09,US,2023-05-26
371,vernon,50.2581,-119.2691,14.400000000000034,69,13,2.57,CA,2023-05-26
372,ust'-kut,56.7938,105.7672,10.07000000000005,55,100,2.61,RU,2023-05-26
373,rovaniemi,66.5,25.7167,8.670000000000016,49,20,6.69,FI,2023-05-26
374,metro,-5.1131,105.3067,30.27000000000004,68,69,3.2,ID,2023-05-26
375,lethem,3.3803,-59.7968,23.720000000000027,92,90,1.57,GY,2023-05-26
376,gwadar,25.1216,62.3254,32.379999999999995,69,6,5.92,PK,2023-05-26
377,necochea,-38.5473,-58.7368,13.960000000000036,84,100,4.1,AR,2023-05-26
378,vorkuta,67.5,64.0,19.33000000000004,69,100,6.62,RU,2023-05-26
379,kilju,40.9642,129.3278,23.900000000000034,43,58,4.23,KP,2023-05-26
380,castillos,-34.1667,-53.8333,17.600000000000023,80,1,4.02,UY,2023-05-26
381,prado,-17.3411,-39.2208,22.32000000000005,89,29,4.27,BR,2023-05-26
382,hadibu,12.65,54.0333,30.860000000000014,62,24,1.72,YE,2023-05-26
383,asha,54.9973,57.2722,28.939999999999998,28,10,0.37,RU,2023-05-26
384,beyneu,45.3167,55.2,29.49000000000001,16,68,7.2,KZ,2023-05-26
385,richfield,44.8833,-93.283,16.150000000000034,46,0,4.12,US,2023-05-26
386,stetten am kalten markt,48.1242,9.0778,16.360000000000014,70,17,2.06,DE,2023-05-26
387,amos,48.5669,-78.1162,3.8100000000000023,70,100,1.29,CA,2023-05-26
388,chepo,9.1667,-79.1,26.79000000000002,92,100,0.42,PA,2023-05-26
389,miramichi,47.0043,-65.4654,5.300000000000011,96,100,3.07,CA,2023-05-26
390,kalmunai,7.4167,81.8167,32.19,58,60,2.76,LK,2023-05-26
391,coppell,32.9546,-97.015,22.80000000000001,78,0,1.54,US,2023-05-26
392,freetown,8.484,-13.2299,22.840000000000032,94,40,4.12,SL,2023-05-26
393,tortoli,39.9256,9.6572,21.900000000000034,60,0,6.17,IT,2023-05-26
394,jayapura,-2.5333,140.7,32.660000000000025,75,15,2.36,ID,2023-05-26
395,kuqa,41.7278,82.9364,24.650000000000034,9,93,2.16,CN,2023-05-26
396,la ronge,55.1001,-105.2842,12.140000000000043,76,100,1.03,CA,2023-05-26
397,rio branco,-9.9747,-67.81,22.340000000000032,100,0,0.0,BR,2023-05-26
398,penzance,50.1186,-5.5371,15.980000000000018,82,0,3.6,GB,2023-05-26
399,thika,-1.0333,37.0693,20.060000000000002,72,99,0.99,KE,2023-05-26
400,morant bay,17.8815,-76.4093,27.79000000000002,82,5,0.96,JM,2023-05-26
401,bahia de kino,28.8333,-111.9333,23.860000000000014,60,87,2.34,MX,2023-05-26
402,vostochnyy,55.8167,37.8667,22.150000000000034,84,5,1.65,RU,2023-05-26
403,neyriz,29.1988,54.3278,28.870000000000005,22,3,1.71,IR,2023-05-26
404,los llanos de aridane,28.6585,-17.9182,16.860000000000014,77,40,2.68,ES,2023-05-26
405,masterton,-40.9597,175.6575,14.379999999999995,82,100,3.72,NZ,2023-05-26
406,mabaruma,8.2,-59.7833,23.470000000000027,99,41,0.76,GY,2023-05-26
407,kodiak,57.79,-152.4072,5.730000000000018,87,0,0.0,US,2023-05-26
408,manokwari,-0.8667,134.0833,28.900000000000034,73,100,3.04,ID,2023-05-26
409,pangoa,-12.1167,-73.0,19.52000000000004,97,100,0.93,PE,2023-05-26
410,markovo,57.3206,107.0881,9.28000000000003,67,100,3.51,RU,2023-05-26
411,saint-philippe,-21.3585,55.7679,25.77000000000004,78,98,5.32,RE,2023-05-26
412,longyearbyen,78.2186,15.6401,-0.08999999999997499,69,75,6.17,SJ,2023-05-26
413,oranjemund,-28.55,16.4333,12.480000000000018,70,6,3.15,NA,2023-05-26
414,st. john's,47.5649,-52.7093,3.7700000000000387,96,100,7.72,CA,2023-05-26
415,akureyri,65.6835,-18.0878,7.960000000000036,57,0,3.6,IS,2023-05-26
416,kavieng,-2.5744,150.7967,28.260000000000048,77,36,3.28,PG,2023-05-26
417,agat village,13.3886,144.6585,29.060000000000002,86,72,6.62,GU,2023-05-26
418,tralee,52.2704,-9.7026,11.140000000000043,100,40,0.51,IE,2023-05-26
419,k'olito,7.3167,38.0833,20.75,76,97,0.99,ET,2023-05-26
420,prince rupert,54.3161,-130.3201,12.830000000000041,92,100,2.06,CA,2023-05-26
421,richmond,37.5538,-77.4603,10.650000000000034,93,0,0.0,US,2023-05-26
422,haugesund,59.4138,5.268,10.140000000000043,81,75,7.72,NO,2023-05-26
423,caleta de carquin,-11.0925,-77.6267,21.120000000000005,83,100,4.87,PE,2023-05-26
424,graham,47.0529,-122.2943,16.620000000000005,81,0,0.0,US,2023-05-26
425,kolonia,50.9333,6.95,13.810000000000002,77,20,2.06,DE,2023-05-26
426,port hedland,-20.3167,118.5667,29.03000000000003,17,5,7.2,AU,2023-05-26
427,sarykemer,43.0,71.5,25.710000000000036,16,0,4.22,KZ,2023-05-26
428,lukovit,43.2,24.1667,19.420000000000016,77,81,1.13,BG,2023-05-26
429,qui nhon,13.7667,109.2333,30.0,66,18,3.93,VN,2023-05-26
430,namie,37.4833,141.0,22.060000000000002,72,100,0.45,JP,2023-05-26
431,funadhoo,6.15,73.2667,29.310000000000002,71,14,3.84,MV,2023-05-26
432,polyarnyy,69.1989,33.4478,9.390000000000043,45,78,5.56,RU,2023-05-26
433,belomorsk,64.5232,34.7668,12.420000000000016,33,100,4.73,RU,2023-05-26
434,natitingou,10.3042,1.3796,25.900000000000034,76,48,2.22,BJ,2023-05-26
435,cururupu,-1.8283,-44.8683,23.260000000000048,97,49,1.28,BR,2023-05-26
436,trevelin,-43.0858,-71.4639,1.7100000000000364,93,28,1.56,AR,2023-05-26
437,toliara,-23.35,43.6667,26.010000000000048,45,0,1.94,MG,2023-05-26
438,banda aceh,5.5577,95.3222,30.200000000000045,68,96,6.39,ID,2023-05-26
439,kegeyli shahar,42.7767,59.6078,32.05000000000001,12,3,4.56,UZ,2023-05-26
440,palu,-0.8917,119.8707,27.100000000000023,92,100,1.23,ID,2023-05-26
441,alta,69.9689,23.2717,7.590000000000032,59,75,3.09,NO,2023-05-26
442,pruzhany,52.5567,24.4644,16.980000000000018,72,10,4.07,BY,2023-05-26
443,atakpame,7.5333,1.1333,24.32000000000005,85,99,1.32,TG,2023-05-26
444,sosnovoborsk,56.1325,93.3589,13.600000000000023,38,100,2.99,RU,2023-05-26
445,kokopo,-4.352,152.2633,27.49000000000001,78,100,4.32,PG,2023-05-26
446,ancud,-41.8697,-73.8203,6.470000000000027,77,100,3.72,CL,2023-05-26
447,sandnessjoen,66.0217,12.6316,5.920000000000016,82,75,6.17,NO,2023-05-26
448,el nido,11.1858,119.3956,29.33000000000004,72,100,3.65,PH,2023-05-26
449,las heras,-46.5419,-68.9359,0.9700000000000273,60,92,6.2,AR,2023-05-26
450,kyaka,-1.2522,31.4203,24.629999999999995,62,100,2.71,TZ,2023-05-26
451,kantharalak,14.6406,104.6499,32.27000000000004,54,98,2.29,TH,2023-05-26
452,puerto aysen,-45.4,-72.7,2.8100000000000023,99,100,1.63,CL,2023-05-26
453,ambodifotatra,-16.9833,49.85,24.78000000000003,74,50,7.35,MG,2023-05-26
454,krasnyy chikoy,50.3643,108.7512,13.439999999999998,28,100,6.08,RU,2023-05-26
455,sangola,17.4333,75.2,35.64000000000004,27,0,3.82,IN,2023-05-26
456,tromso,69.6496,18.957,3.5400000000000205,93,75,5.66,NO,2023-05-26
457,doka,13.5167,35.7667,36.78000000000003,25,100,5.89,SD,2023-05-26
458,slave lake,55.2834,-114.769,11.990000000000009,76,75,3.09,CA,2023-05-26
459,weno,7.4515,151.8468,26.970000000000027,89,100,0.0,FM,2023-05-26
460,kenora,49.8167,-94.4337,17.54000000000002,63,40,4.63,CA,2023-05-26
461,lerwick,60.1545,-1.1494,9.0,76,26,7.52,GB,2023-05-26
462,gazli,40.1333,63.45,30.200000000000045,11,0,5.52,UZ,2023-05-26
463,abepura,-2.6333,140.5833,32.450000000000045,62,20,3.6,ID,2023-05-26
464,kurchatov,51.6601,35.6521,21.230000000000018,66,100,2.43,RU,2023-05-26
465,shantobe,52.4581,68.1839,20.77000000000004,40,41,5.23,KZ,2023-05-26
466,rabo de peixe,37.8,-25.5833,15.730000000000018,88,75,4.63,PT,2023-05-26
467,pazaryolu,40.4208,40.771,17.74000000000001,48,98,1.3,TR,2023-05-26
468,ksar el kebir,35.0017,-5.9053,18.33000000000004,83,1,1.33,MA,2023-05-26
469,trujillo,-8.116,-79.03,21.980000000000018,88,99,5.14,PE,2023-05-26
470,newman,37.3138,-121.0208,16.189999999999998,74,59,0.89,US,2023-05-26
471,tomakivka,47.8157,34.7414,21.460000000000036,66,18,1.4,UA,2023-05-26
472,kattivakkam,13.2167,80.3167,38.05000000000001,53,100,3.88,IN,2023-05-26
473,kaoma,-14.7833,24.8,22.600000000000023,34,5,4.21,ZM,2023-05-26
474,namdrik,5.5994,168.1028,28.310000000000002,78,95,5.76,MH,2023-05-26
475,tarakan,3.3,117.6333,30.720000000000027,70,40,2.06,ID,2023-05-26
476,siwa oasis,29.2041,25.5195,31.230000000000018,20,99,7.46,EG,2023-05-26
477,batticaloa,7.7102,81.6924,31.689999999999998,61,71,2.58,LK,2023-05-26
478,lata,40.1629,-8.3327,16.150000000000034,67,38,2.07,PT,2023-05-26
479,bullsbrook,-31.6667,116.0,19.189999999999998,37,0,4.12,AU,2023-05-26
480,banikoara,11.2985,2.4386,28.660000000000025,61,31,3.12,BJ,2023-05-26
481,babayevo,59.3936,35.9371,18.100000000000023,61,2,4.59,RU,2023-05-26
482,kinablangan,7.6947,126.5503,29.83000000000004,72,99,3.02,PH,2023-05-26
483,dongsheng,39.8161,109.9776,23.08000000000004,14,54,6.34,CN,2023-05-26
484,maumere,-8.6199,122.2111,27.29000000000002,70,69,3.88,ID,2023-05-26
485,rechka-vydrino,51.485,104.8461,7.78000000000003,55,12,3.78,RU,2023-05-26
486,saint joseph,39.7686,-94.8466,18.78000000000003,61,0,3.09,US,2023-05-26
487,sittwe,20.15,92.9,30.810000000000002,66,0,4.02,MM,2023-05-26
488,teofilo otoni,-17.8575,-41.5053,18.670000000000016,96,100,0.9,BR,2023-05-26
489,nantucket,41.2835,-70.0995,11.060000000000002,82,0,3.6,US,2023-05-26
490,brigantine,39.4101,-74.3646,12.220000000000027,90,0,0.89,US,2023-05-26
491,kapuskasing,49.4169,-82.4331,7.0,81,20,1.03,CA,2023-05-26
492,saint-francois,46.4154,3.9054,15.689999999999998,88,0,0.0,FR,2023-05-26
493,westport,41.1415,-73.3579,12.879999999999995,70,40,2.57,US,2023-05-26
494,council bluffs,41.2619,-95.8608,19.310000000000002,61,40,4.12,US,2023-05-26
495,taoudenni,22.6783,-3.9836,30.129999999999995,19,81,3.83,ML,2023-05-26
496,longonjo,-12.9067,15.2533,20.660000000000025,59,1,0.7,AO,2023-05-26
497,san blas,21.5167,-105.2667,23.03000000000003,65,19,1.25,MX,2023-05-26
498,prince george,53.9166,-122.753,10.700000000000045,82,0,1.03,CA,2023-05-26
499,nikolayevsk-on-amure,53.1406,140.73,12.53000000000003,81,100,3.01,RU,2023-05-26
500,kavaratti,10.5669,72.642,30.160000000000025,67,8,4.22,IN,2023-05-26
501,vadso,70.0744,29.7487,9.490000000000009,46,20,3.6,NO,2023-05-26
502,kasongo-lunda,-6.4667,16.8167,24.04000000000002,86,97,0.42,CD,2023-05-26
503,motueka,-41.1333,173.0167,11.32000000000005,88,100,1.88,NZ,2023-05-26
504,santyoku,37.4406,129.1708,22.350000000000023,58,100,4.86,KR,2023-05-26
505,arauquita,7.0292,-71.4281,22.33000000000004,100,98,0.49,CO,2023-05-26
506,san pedro pochutla,15.7333,-96.4667,26.510000000000048,80,100,1.72,MX,2023-05-26
507,salur,18.5333,83.2167,38.69,31,69,2.56,IN,2023-05-26
508,djibo,14.1022,-1.6306,32.04000000000002,25,43,3.3,BF,2023-05-26
509,concepcion,-36.827,-73.0498,12.890000000000043,94,100,4.63,CL,2023-05-26
510,kenai,60.5544,-151.2583,8.050000000000011,100,40,4.12,US,2023-05-26
511,lubuklinggau,-3.3,102.8667,32.98000000000002,53,88,1.17,ID,2023-05-26
512,pulaski,34.7668,-92.3001,23.060000000000002,67,75,4.63,US,2023-05-26
513,ceeldheer,3.8488,47.1806,30.27000000000004,58,37,6.86,SO,2023-05-26
514,rabaul,-4.1967,152.1721,28.27000000000004,76,100,5.39,PG,2023-05-26
515,urangan,-25.3,152.9,21.78000000000003,77,0,5.56,AU,2023-05-26
516,zhumysker,49.3333,49.4,29.32000000000005,25,100,10.76,KZ,2023-05-26
517,mount gambier,-37.8333,140.7667,11.760000000000048,74,100,4.1,AU,2023-05-26
518,envira,-7.3,-70.2167,21.55000000000001,99,100,0.47,BR,2023-05-26
519,baykan,38.1627,41.7833,23.230000000000018,45,6,0.69,TR,2023-05-26
520,agadez,19.75,10.25,33.660000000000025,16,0,3.44,NE,2023-05-26
521,shimoda,34.6667,138.95,22.200000000000045,62,81,3.56,JP,2023-05-26
522,kzyltu,53.6364,72.3414,20.680000000000007,24,3,6.09,KZ,2023-05-26
523,egilsstadir,65.2653,-14.3948,6.9500000000000455,49,0,1.54,IS,2023-05-26
524,flying fish cove,-10.4217,105.6791,25.82000000000005,88,100,5.66,CX,2023-05-26
525,taltal,-25.4,-70.4833,16.350000000000023,74,100,0.7,CL,2023-05-26
526,mar del plata,-38.0023,-57.5575,15.610000000000014,98,100,1.34,AR,2023-05-26
527,floro,61.5996,5.0328,10.54000000000002,71,20,2.06,NO,2023-05-26
528,goondiwindi,-28.55,150.3167,15.0,50,22,7.22,AU,2023-05-26
529,gao,16.6362,1.637,31.980000000000018,20,5,3.45,ML,2023-05-26
530,waingapu,-9.6567,120.2641,27.52000000000004,66,100,8.0,ID,2023-05-26
531,ponta delgada,37.7333,-25.6667,16.400000000000034,88,75,4.63,PT,2023-05-26
532,jianshui,23.6363,102.8264,30.410000000000025,38,72,5.0,CN,2023-05-26
533,east london,-33.0153,27.9116,14.520000000000039,58,0,9.26,ZA,2023-05-26
534,gubkinskiy,64.434,76.5026,15.310000000000002,37,100,4.86,RU,2023-05-26
535,thurso,58.5927,-3.5259,10.140000000000043,74,32,3.54,GB,2023-05-26
536,vilyuchinsk,52.9306,158.4028,14.150000000000034,65,24,3.07,RU,2023-05-26
537,mariehamn,60.0973,19.9348,12.920000000000016,44,0,7.72,AX,2023-05-26
538,farrokh shahr,32.2717,50.9801,23.590000000000032,25,20,5.14,IR,2023-05-26
539,beaufort west,-32.3567,22.583,7.670000000000016,55,8,2.95,ZA,2023-05-26
540,samus',56.7475,84.6992,17.910000000000025,25,99,3.92,RU,2023-05-26
541,seven pagodas,12.6264,80.1722,38.03000000000003,50,98,2.19,IN,2023-05-26
542,kristiansund,63.1115,7.732,8.03000000000003,87,75,10.29,NO,2023-05-26
543,opuwo,-18.0607,13.84,19.58000000000004,33,0,2.4,NA,2023-05-26
544,otjiwarongo,-20.4637,16.6477,19.200000000000045,28,0,4.14,NA,2023-05-26
545,huntsville,34.7304,-86.5861,19.0,79,0,4.47,US,2023-05-26
546,linxia chengguanzhen,35.6003,103.2064,19.450000000000045,46,76,2.0,CN,2023-05-26
547,san patricio,28.017,-97.5169,26.02000000000004,81,100,2.37,US,2023-05-26
548,bakshwaho,24.25,79.3,35.43000000000001,29,20,5.13,IN,2023-05-26
549,kish,26.5578,54.0194,34.150000000000034,62,6,2.06,IR,2023-05-26
550,maceio,-9.6658,-35.7353,24.689999999999998,94,75,2.57,BR,2023-05-26
551,olyokminsk,60.3736,120.4264,15.460000000000036,22,100,5.78,RU,2023-05-26
552,zliten,32.4674,14.5687,20.590000000000032,65,0,5.01,LY,2023-05-26
553,berber,18.0216,33.983,39.460000000000036,14,0,6.51,SD,2023-05-26
554,moyynkum,44.2914,72.9469,26.689999999999998,19,1,2.08,KZ,2023-05-26
555,pimentel,-6.8367,-79.9342,23.160000000000025,83,0,4.63,PE,2023-05-26
556,konarka,19.9,86.1167,34.22000000000003,60,4,7.85,IN,2023-05-26
557,nejo,9.5,35.5,25.480000000000018,41,80,1.83,ET,2023-05-26
558,puerto san jose,13.9256,-90.8244,26.07000000000005,82,100,1.41,GT,2023-05-26
559,nadym,65.5333,72.5167,20.610000000000014,41,81,8.85,RU,2023-05-26
560,mamuju,-2.6748,118.8885,29.420000000000016,73,83,2.78,ID,2023-05-26
561,azovo,54.6997,73.0237,19.860000000000014,29,0,4.71,RU,2023-05-26
562,natal,-5.795,-35.2094,24.360000000000014,100,20,3.09,BR,2023-05-26
563,obudu,6.6674,9.1716,25.310000000000002,90,100,1.62,NG,2023-05-26
564,itamaraca,-7.7478,-34.8256,27.03000000000003,81,7,4.18,BR,2023-05-26
565,al manshah,26.4769,31.8035,36.14000000000004,9,0,4.63,EG,2023-05-26
566,salinopolis,-0.6136,-47.3561,25.860000000000014,86,14,3.96,BR,2023-05-26
567,tinghir,31.5157,-5.5343,19.80000000000001,23,0,0.93,MA,2023-05-26
568,nili,33.7218,66.1302,19.850000000000023,12,0,3.74,AF,2023-05-26
569,dwarka,22.2394,68.9678,30.129999999999995,77,11,10.64,IN,2023-05-26
570,ibshaway,29.358,30.6814,31.439999999999998,22,99,5.44,EG,2023-05-26
571,bolobo,-2.1667,16.2333,24.54000000000002,86,100,0.31,CD,2023-05-26
572,kolonia town,6.964,158.206,29.0,79,75,2.57,FM,2023-05-26
573,sao jose da coroa grande,-8.8978,-35.1478,24.930000000000007,86,6,4.18,BR,2023-05-26
574,as sulayyil,20.4607,45.5779,36.14000000000004,19,28,5.31,SA,2023-05-26
575,cadale,2.7603,46.3222,28.870000000000005,68,52,6.9,SO,2023-05-26
576,nabire,-3.3667,135.4833,30.510000000000048,61,27,1.3,ID,2023-05-26
577,santa barbara,34.7333,-120.0343,13.050000000000011,83,100,2.06,US,2023-05-26
578,russkaya polyana,49.417,31.9201,20.439999999999998,66,91,3.69,UA,2023-05-26
579,shingu,33.7333,135.9833,20.600000000000023,67,97,1.8,JP,2023-05-26
580,nebraska city,40.6767,-95.8592,18.30000000000001,77,0,2.06,US,2023-05-26
581,mount pearl,47.5166,-52.7813,3.3100000000000023,96,100,7.72,CA,2023-05-26
582,acapulco de juarez,16.8634,-99.8901,27.900000000000034,78,75,0.0,MX,2023-05-26
583,lorengau,-2.0226,147.2712,28.340000000000032,72,10,1.66,PG,2023-05-26
584,pisco,-13.7,-76.2167,21.03000000000003,78,100,4.12,PE,2023-05-26
585,qamdo,31.1667,97.2333,17.25,19,19,8.65,CN,2023-05-26
586,faaa,-17.55,-149.6,26.980000000000018,78,20,1.54,PF,2023-05-26
587,naha,26.2125,127.6811,26.950000000000045,59,40,7.2,JP,2023-05-26
